연번,종류,시설명,도로명주소,위도,경도,정원(명),데이터기준일자
1,노인일자리지원기관,남동구노인인력개발센터,인천광역시 남동구 문화서로62번길 13,37.45100844,126.6972681,47,2024-08-23
2,노인일자리지원기관,남도시니어클럽,인천광역시 남동구 문화서로62번길 13,37.45100844,126.6972681,24,2024-08-23
3,노인여가복지시설,남동구노인복지관,인천광역시 남동구 소래로 610,37.44439953,126.7325397,해당 없음,2024-08-23
4,노인여가복지시설,만수노인문화센터,인천광역시 남동구 만경로12번길 45,37.45646335,126.7299175,해당 없음,2024-08-23
5,노인여가복지시설,사할린센터,인천광역시 남동구 논현고잔로 211-21,37.40060511,126.7154771,해당 없음,2024-08-23
6,노인여가복지시설,대구월,인천광역시 남동구 용천로4번길 63-6,37.44984676,126.7179478,해당 없음,2024-08-23
7,노인여가복지시설,동남아파트,인천광역시 남동구 인주대로676번길 19,37.44856452,126.7127144,해당 없음,2024-08-23
8,노인여가복지시설,팬더아파트,인천광역시 남동구 인주대로662번길 32,37.44815638,126.7091615,해당 없음,2024-08-23
9,노인여가복지시설,동아아파트,인천광역시 남동구 인주대로676번길 22,37.44776797,126.7115527,해당 없음,2024-08-23
10,노인여가복지시설,구월아시아드선수촌센트럴자이아파트,인천광역시 남동구 선수촌로 55,37.44329074,126.7124657,해당 없음,2024-08-23
11,노인여가복지시설,구월아시아드선수촌1단지,인천광역시 남동구 선수촌공원로 85,37.44658968,126.7117424,해당 없음,2024-08-23
12,노인여가복지시설,구월아시아드선수촌2단지,인천광역시 남동구 선수촌공원로 96,37.44822813,126.714924,해당 없음,2024-08-23
13,노인여가복지시설,구월아시아드선수촌5단지,인천광역시 남동구 선수촌로 56,37.44452427,126.7173604,해당 없음,2024-08-23
14,노인여가복지시설,구월아시아드선수촌6단지,인천광역시 남동구 선수촌로 27,37.44142075,126.712848,해당 없음,2024-08-23
15,노인여가복지시설,구월유승한내들퍼스티지,인천광역시 남동구 선수촌로 75,37.44630867,126.7165615,해당 없음,2024-08-23
16,노인여가복지시설,구월아시아드선수촌7단지,인천광역시 남동구 선수촌로 7,37.44057491,126.7129529,해당 없음,2024-08-23
17,노인여가복지시설,구월아시아드선수촌8단지,인천광역시 남동구 선수촌로 8,37.44107767,126.7169333,해당 없음,2024-08-23
18,노인여가복지시설,구월2동,인천광역시 남동구 호구포로857번길 23,37.4589154,126.7183357,해당 없음,2024-08-23
19,노인여가복지시설,신세계,인천광역시 남동구 호구포로 858,37.45721276,126.7208626,해당 없음,2024-08-23
20,노인여가복지시설,구월힐스테이트1단지,인천광역시 남동구 구월로 192,37.45647791,126.7104427,해당 없음,2024-08-23
21,노인여가복지시설,롯데캐슬골드(2단지),인천광역시 남동구 호구포로 803,37.45495934,126.7149672,해당 없음,2024-08-23
22,노인여가복지시설,힐스테이트3단지,인천광역시 남동구 용천로87번길 23,37.45688178,126.7119504,해당 없음,2024-08-23
23,노인여가복지시설,구월2동두드림,인천광역시 남동구 용천로98번길 24,37.45804247,126.715943,해당 없음,2024-08-23
24,노인여가복지시설,구월3동,인천광역시 남동구 문화서로28번길 33-31,37.44875523,126.6980305,해당 없음,2024-08-23
25,노인여가복지시설,대우재,인천광역시 남동구 구월남로94번길 3,37.45329758,126.6997715,해당 없음,2024-08-23
26,노인여가복지시설,성마을,인천광역시 남동구 인주대로604번길 45,37.4477302,126.7039701,해당 없음,2024-08-23
27,노인여가복지시설,구월4동,인천광역시 남동구 모래내로 26,37.45401484,126.7226011,해당 없음,2024-08-23
28,노인여가복지시설,신월,인천광역시 남동구 구월말로3번길 72-3,37.44968095,126.7201092,해당 없음,2024-08-23
29,노인여가복지시설,보훈회관,인천광역시 남동구 인주대로 797-1,37.44900553,126.7259862,해당 없음,2024-08-23
30,노인여가복지시설,구월성문아파트,인천광역시 남동구 호구포로744번길 26,37.44829923,126.7206526,해당 없음,2024-08-23
31,노인여가복지시설,이화,인천광역시 남동구 이화로 8,37.46291495,126.7033579,해당 없음,2024-08-23
32,노인여가복지시설,동일경로당,인천광역시 남동구 구월로60번길 28,37.45595734,126.6966512,해당 없음,2024-08-23
33,노인여가복지시설,금호아파트,인천광역시 남동구 구월로 73,37.45753164,126.6996982,해당 없음,2024-08-23
34,노인여가복지시설,극동아파트,인천광역시 남동구 구월로 78,37.45633548,126.6982609,해당 없음,2024-08-23
35,노인여가복지시설,한진아파트,인천광역시 남동구 경인로524번길 16,37.45875083,126.6974957,해당 없음,2024-08-23
36,노인여가복지시설,현대홈타운아파트,인천광역시 남동구 구월로 65,37.45742341,126.6980499,해당 없음,2024-08-23
37,노인여가복지시설,서해아파트,인천광역시 남동구 구월로157번길 7,37.45751268,126.7061864,해당 없음,2024-08-23
38,노인여가복지시설,간석2동,인천광역시 남동구 석촌로14번길 63,37.46207124,126.7127318,해당 없음,2024-08-23
39,노인여가복지시설,용광,인천광역시 남동구 석산로 207,37.46098751,126.7149884,해당 없음,2024-08-23
40,노인여가복지시설,금호어울림마을,인천광역시 남동구 석산로 138,37.46004116,126.7066967,해당 없음,2024-08-23
41,노인여가복지시설,간석래미안자이,인천광역시 남동구 남동대로 860,37.46014705,126.7089669,해당 없음,2024-08-23
42,노인여가복지시설,만월산,인천광역시 남동구 간석로 72번길 39-9,37.46471332,126.716236,해당 없음,2024-08-23
43,노인여가복지시설,공원촌,인천광역시 남동구 간석로 92,37.46551056,126.7174658,해당 없음,2024-08-23
44,노인여가복지시설,삼거리장수,인천광역시 남동구 경인로764번길 21,37.47753914,126.7116415,해당 없음,2024-08-23
45,노인여가복지시설,돌말,인천광역시 남동구 간석로31번길 15,37.46799762,126.7116807,해당 없음,2024-08-23
46,노인여가복지시설,팬더아파트,인천광역시 남동구 경인로742번길 46,37.47465997,126.7103681,해당 없음,2024-08-23
47,노인여가복지시설,태화아파트,인천광역시 남동구 호구포로900번길 5,37.46360201,126.720946,해당 없음,2024-08-23
48,노인여가복지시설,두진아파트,인천광역시 남동구 호구포로899번길 8,37.46312948,126.7197446,해당 없음,2024-08-23
49,노인여가복지시설,동원아파트,인천광역시 남동구 간석로66번길 29,37.46483888,126.7153521,해당 없음,2024-08-23
50,노인여가복지시설,시온,인천광역시 남동구 만월북로 46,37.47086557,126.7185614,해당 없음,2024-08-23
51,노인여가복지시설,간석LH1단지,"인천광역시 남동구 백범로294번길15,19",37.46362627,126.7173623,해당 없음,2024-08-23
52,노인여가복지시설,간석LH2단지아파트,"인천광역시 남동구 백범로294번길16,20",37.46240409,126.7184909,해당 없음,2024-08-23
53,노인여가복지시설,간석4동,인천광역시 남동구 벽돌말로3번길 6,37.46753574,126.7007573,해당 없음,2024-08-23
54,노인여가복지시설,석천,인천광역시 남동구 예술로360번길 8,37.46603094,126.7032137,해당 없음,2024-08-23
55,노인여가복지시설,주원,인천광역시 남동구 주안로247번길 18,37.46409494,126.6975839,해당 없음,2024-08-23
56,노인여가복지시설,우성아파트,인천광역시 남동구 방축로 501,37.46687026,126.6935115,해당 없음,2024-08-23
57,노인여가복지시설,간석현대아파트,인천광역시 남동구 방축로 493,37.46824543,126.6940189,해당 없음,2024-08-23
58,노인여가복지시설,영남아파트,인천광역시 남동구 경원대로 950,37.4672703,126.6905767,해당 없음,2024-08-23
59,노인여가복지시설,간석광명아파트,인천광역시 남동구 방축로 492,37.46638006,126.692367,해당 없음,2024-08-23
60,노인여가복지시설,"현광A(가, 나동)",인천광역시 남동구 경원대로939번길 45,37.46732007,126.6877498,해당 없음,2024-08-23
61,노인여가복지시설,풍림아파트,인천광역시 남동구 석산로 35,37.46244599,126.6975786,해당 없음,2024-08-23
62,노인여가복지시설,간석신원아침도시아파텔,인천광역시 남동구 경원대로 972,37.46942135,126.6911723,해당 없음,2024-08-23
63,노인여가복지시설,간석신동아아파트,인천광역시 남동구 염전로 440,37.46824035,126.6894859,해당 없음,2024-08-23
64,노인여가복지시설,간석한신더휴,인천광역시 남동구 석정로461번길 50,37.46837708,126.6880026,해당 없음,2024-08-23
65,노인여가복지시설,만수1동,인천광역시 남동구 하촌로51번길 5,37.45234526,126.7324057,해당 없음,2024-08-23
66,노인여가복지시설,만수하촌,인천광역시 남동구 하촌서로17번길 26,37.45048829,126.7281311,해당 없음,2024-08-23
67,노인여가복지시설,삼환아파트 1단지,인천광역시 남동구 인주대로 857,37.44976936,126.7325057,해당 없음,2024-08-23
68,노인여가복지시설,삼환아파트 2단지,인천광역시 남동구 소래로 677,37.45043203,126.7338055,해당 없음,2024-08-23
69,노인여가복지시설,주공아파트 7단지,인천광역시 남동구 담방로 105,37.45042499,126.7398973,해당 없음,2024-08-23
70,노인여가복지시설,주공아파트 8단지,인천광역시 남동구 담방로 105,37.45042499,126.7398973,해당 없음,2024-08-23
71,노인여가복지시설,하우스토리만수경로당,인천광역시 남동구 구월로372번길 90,37.4504384,126.7310365,해당 없음,2024-08-23
72,노인여가복지시설,만부,인천광역시 남동구 만부로 16-35,37.46713807,126.7397867,해당 없음,2024-08-23
73,노인여가복지시설,대동주택아파트,인천광역시 남동구 만수서로83번길 63-4,37.46563354,126.7338999,해당 없음,2024-08-23
74,노인여가복지시설,신동아아파트,인천광역시 남동구 만수로111번길 38,37.46702451,126.7358999,해당 없음,2024-08-23
75,노인여가복지시설,신한2차아파트,인천광역시 남동구 수현로136번길 30,37.46568766,126.739811,해당 없음,2024-08-23
76,노인여가복지시설,신성신아파트,인천광역시 남동구 만수로75번길 71-9,37.46468798,126.735634,해당 없음,2024-08-23
77,노인여가복지시설,향촌,인천광역시 남동구 만수서로 55,37.4635579,126.7335957,해당 없음,2024-08-23
78,노인여가복지시설,포레시안1-2,인천광역시 남동구 만수서로 55,37.4635579,126.7335957,해당 없음,2024-08-23
79,노인여가복지시설,향촌휴먼시아2단지,인천광역시 남동구 만수서로 36,37.4611475,126.7306409,해당 없음,2024-08-23
80,노인여가복지시설,만수3동,인천광역시 남동구 서판로68번길 82,37.46012705,126.7262386,해당 없음,2024-08-23
81,노인여가복지시설,신일,인천광역시 남동구 서판로54번길 12,37.46358786,126.7254791,해당 없음,2024-08-23
82,노인여가복지시설,동부,인천광역시 남동구 백범로214번길 49,37.46245569,126.7257696,해당 없음,2024-08-23
83,노인여가복지시설,영풍2차아파트,인천광역시 남동구 호구포로888번길 40,37.4615858,126.7219751,해당 없음,2024-08-23
84,노인여가복지시설,벽산아파트,인천광역시 남동구 호구포로 924,37.46458892,126.7247274,해당 없음,2024-08-23
85,노인여가복지시설,대성유니드,인천광역시 남동구 서판로 30,37.46299353,126.7246753,해당 없음,2024-08-23
86,노인여가복지시설,인수,인천광역시 남동구 인수남로5번길 18-5,37.4533314,126.7378368,해당 없음,2024-08-23
87,노인여가복지시설,만수주공1단지아파트,인천광역시 남동구 만수로 14-26,37.45705531,126.731343,해당 없음,2024-08-23
88,노인여가복지시설,만수주공2단지아파트,인천광역시 남동구 백범로124번길 43,37.45827188,126.7347247,해당 없음,2024-08-23
89,노인여가복지시설,만수주공3단지아파트,인천광역시 남동구 백범로124번길 16,37.45611201,126.7358122,해당 없음,2024-08-23
90,노인여가복지시설,만수주공4단지아파트,인천광역시 남동구 백범로124번길 126,37.4599778,126.7409127,해당 없음,2024-08-23
91,노인여가복지시설,만수주공5단지아파트,인천광역시 남동구 백범로124번길 127,37.45990744,126.7376925,해당 없음,2024-08-23
92,노인여가복지시설,만수주공6단지아파트,인천광역시 남동구 만수로50번길 19,37.46037477,126.7367352,해당 없음,2024-08-23
93,노인여가복지시설,주공11단지아파트,인천광역시 남동구 만수서로105번길 40-18,37.46205556,126.739725,해당 없음,2024-08-23
94,노인여가복지시설,만수5동,인천광역시 남동구 구월말로58번길 61-2,37.45396225,126.7285922,해당 없음,2024-08-23
95,노인여가복지시설,성현,인천광역시 남동구 구월말로100번길 5,37.45806661,126.7256744,해당 없음,2024-08-23
96,노인여가복지시설,삼용아파트,인천광역시 남동구 백범로227번길 69,37.4571398,126.7241191,해당 없음,2024-08-23
97,노인여가복지시설,동남아파트,인천광역시 남동구 백범로247번길 37,37.45899361,126.7222339,해당 없음,2024-08-23
98,노인여가복지시설,효성상아아파트,인천광역시 남동구 백범로227번길 76,37.45702851,126.7229907,해당 없음,2024-08-23
99,노인여가복지시설,만수6동,인천광역시 남동구 담방서로3번길 17,37.44558498,126.7363847,해당 없음,2024-08-23
100,노인여가복지시설,진흥아파트,인천광역시 남동구 장승남로81번길 16,37.44356848,126.7424758,해당 없음,2024-08-23
101,노인여가복지시설,만수광명아파트,인천광역시 남동구 담방로21번길 24 ,37.44184119,126.7368092,해당 없음,2024-08-23
102,노인여가복지시설,한국아파트,인천광역시 남동구 담방로21번길 23,37.44127926,126.7365022,해당 없음,2024-08-23
103,노인여가복지시설,남동아파트,인천광역시 남동구 장승남로33번길 23,37.44505131,126.7345064,해당 없음,2024-08-23
104,노인여가복지시설,대동아파트,인천광역시 남동구 장승남로33번길 21,37.44424935,126.733661,해당 없음,2024-08-23
105,노인여가복지시설,뉴서울아파트,인천광역시 남동구 담방로21번길 61,37.44069027,126.7353482,해당 없음,2024-08-23
106,노인여가복지시설,만수금호아파트,인천광역시 남동구 담방로 22-16,37.4411112,126.7393301,해당 없음,2024-08-23
107,노인여가복지시설,만수현대아파트,인천광역시 남동구 장승남로 82,37.44313677,126.7408557,해당 없음,2024-08-23
108,노인여가복지시설,만수주공9단지 ,인천광역시 남동구 장승남로 34,37.44204654,126.7357887,해당 없음,2024-08-23
109,노인여가복지시설,담방마을아파트,인천광역시 남동구 매소홀로 1030,37.43908956,126.73733,해당 없음,2024-08-23
110,노인여가복지시설,이삭아파트,인천광역시 남동구 담방서로17번길 21,37.44599822,126.7371123,해당 없음,2024-08-23
111,노인여가복지시설,삼익세라믹아파트,인천광역시 남동구 장승남로 70-30,37.44245026,126.7390026,해당 없음,2024-08-23
112,노인여가복지시설,장수,인천광역시 남동구 장자로6번길 9,37.44995953,126.7503818,해당 없음,2024-08-23
113,노인여가복지시설,수현,인천광역시 남동구 수현로14번길 13-20,37.46444558,126.7501297,해당 없음,2024-08-23
114,노인여가복지시설,서창,인천광역시 남동구 독곡로 80,37.43379921,126.7525034,해당 없음,2024-08-23
115,노인여가복지시설,연락,인천광역시 남동구 만의골로 27,37.44674887,126.7646861,해당 없음,2024-08-23
116,노인여가복지시설,운연,인천광역시 남동구 음실로 70,37.43721913,126.7667297,해당 없음,2024-08-23
117,노인여가복지시설,태평1차아파트,인천광역시 남동구 장아산로128번길 22,37.43949975,126.7470978,해당 없음,2024-08-23
118,노인여가복지시설,서창태평2차아파트,인천광역시 남동구 장아산로 181,37.43451551,126.7520734,해당 없음,2024-08-23
119,노인여가복지시설,서창임광그대가아파트,인천광역시 남동구 장아산로 158,37.43791739,126.7482767,해당 없음,2024-08-23
120,노인여가복지시설,현대모닝사이드아파트,인천광역시 남동구 매소홀로 1103,37.439033,126.7464162,해당 없음,2024-08-23
121,노인여가복지시설,서해그랑블아파트,인천광역시 남동구 독곡로48번길 9,37.43511209,126.7471369,해당 없음,2024-08-23
122,노인여가복지시설,서창자이아파트,인천광역시 남동구 장아산로 157,37.43797927,126.749869,해당 없음,2024-08-23
123,노인여가복지시설,장수주공아파트,인천광역시 남동구 장수로 27,37.45176008,126.7485323,해당 없음,2024-08-23
124,노인여가복지시설,서창LH1단지,"인천광역시 남동구 서창남순환로 124-12,14",37.42972721,126.7432042,해당 없음,2024-08-23
125,노인여가복지시설,서창LH3청아안아파트,인천광역시 남동구 서창남순환로 110,37.43014164,126.7465982,해당 없음,2024-08-23
126,노인여가복지시설,서창LH6단지(에코에비뉴),인천광역시 남동구 서창남순환로 190-100,37.42436684,126.7407404,해당 없음,2024-08-23
127,노인여가복지시설,서창LH7단지(퍼스트뷰),인천광역시 남동구 서창남순환로 190-15,37.42317703,126.7449405,해당 없음,2024-08-23
128,노인여가복지시설,서창LH8단지,인천광역시 남동구 서창남순환로 201,37.42595089,126.7456625,해당 없음,2024-08-23
129,노인여가복지시설,서창베라체아파트경로당(11단지),인천광역시 남동구 서창남로 17,37.41960174,126.751078,해당 없음,2024-08-23
130,노인여가복지시설,서창LH12단지,인천광역시 남동구 서창남로 2,37.41979328,126.7530066,해당 없음,2024-08-23
131,노인여가복지시설,서창LH15단지,인천광역시 남동구 서창남로 109,37.4295402,126.7468116,해당 없음,2024-08-23
132,노인여가복지시설,이편한세상서창아파트,인천광역시 남동구 서창남순환로 9,37.42509602,126.7500265,해당 없음,2024-08-23
133,노인여가복지시설,서창센트럴푸르지오아파트,인천광역시 남동구 서창남순환로 55,37.42978986,126.748265,해당 없음,2024-08-23
134,노인여가복지시설,서창호반베르디움아파트,인천광역시 남동구 서창남순환로 200,37.42358799,126.7471593,해당 없음,2024-08-23
135,노인여가복지시설,더포레스트아파트,인천광역시 남동구 서창남순환로 140,37.42766008,126.7445494,해당 없음,2024-08-23
136,노인여가복지시설,서창꿈에그린아파트,인천광역시 남동구 운연천로 11,37.43093736,126.7562569,해당 없음,2024-08-23
137,노인여가복지시설,서창LH14단지아파트,인천광역시 남동구 운연천로 9,37.42815399,126.7580541,해당 없음,2024-08-23
138,노인여가복지시설,서창청광플러스원아파트,인천광역시 남동구 서창남순환로 82,37.43128031,126.7477657,해당 없음,2024-08-23
139,노인여가복지시설,남촌,인천광역시 남동구 남촌동로26번길 20,37.43294065,126.7160438,해당 없음,2024-08-23
140,노인여가복지시설,신남촌,인천광역시 남동구 남촌동로45번길 4,37.43154679,126.7138078,해당 없음,2024-08-23
141,노인여가복지시설,수산,인천광역시 남동구 구수골로 7,37.43269076,126.7313019,해당 없음,2024-08-23
142,노인여가복지시설,도림이,인천광역시 남동구 도림북로 49,37.42618885,126.7333209,해당 없음,2024-08-23
143,노인여가복지시설,도림동,인천광역시 남동구 도림로 24,37.41947307,126.728,해당 없음,2024-08-23
144,노인여가복지시설,청호아파트,인천광역시 남동구 남촌로93번길 44,37.42714311,126.71403,해당 없음,2024-08-23
145,노인여가복지시설,풍림1차아파트,인천광역시 남동구 남촌동로15번길 21,37.4309526,126.7171738,해당 없음,2024-08-23
146,노인여가복지시설,풍림2차아파트,인천광역시 남동구 남촌동로 8,37.43267136,126.7177998,해당 없음,2024-08-23
147,노인여가복지시설,풍림3차아파트,인천광역시 남동구 남촌로84번길 38,37.4309526,126.7171738,해당 없음,2024-08-23
148,노인여가복지시설,도림주공아파트1단지,인천광역시 남동구 논고개로334번길 17,37.42038693,126.7317127,해당 없음,2024-08-23
149,노인여가복지시설,도림주공아파트2단지,인천광역시 남동구 오봉로 33,37.41863709,126.7307028,해당 없음,2024-08-23
150,노인여가복지시설,도림아이파크,인천광역시 남동구 도리미로 8,37.42169127,126.7315099,해당 없음,2024-08-23
151,노인여가복지시설,도림벽산블루밍아파트,인천광역시 남동구 도림로 8,37.42101233,126.728697,해당 없음,2024-08-23
152,노인여가복지시설,소래,인천광역시 남동구 장도로 55,37.40070631,126.7374428,해당 없음,2024-08-23
153,노인여가복지시설,성화,인천광역시 남동구 앵고개로941번길 18-16,37.40366665,126.7353714,해당 없음,2024-08-23
154,노인여가복지시설,등대마을사할린,인천광역시 남동구 청능대로715번길 62,37.40950498,126.7353299,해당 없음,2024-08-23
155,노인여가복지시설,소래마을풍림아파트,인천광역시 남동구 청능대로718번길 7,37.4058606,126.7383165,해당 없음,2024-08-23
156,노인여가복지시설,휴먼시아동산마을주공8단지아파트,인천광역시 남동구 소래역로 119,37.40498436,126.7280076,해당 없음,2024-08-23
157,노인여가복지시설,별빛마을웰카운티아파트,인천광역시 남동구 논현로 235,37.40685557,126.7319293,해당 없음,2024-08-23
158,노인여가복지시설,단풍마을주공11단지,인천광역시 남동구 소래역로 94,37.40566549,126.7343891,해당 없음,2024-08-23
159,노인여가복지시설,산뒤마을주공12단지,인천광역시 남동구 청능대로715번길 59,37.40835917,126.735191,해당 없음,2024-08-23
160,노인여가복지시설,푸르내마을주공13단지,인천광역시 남동구 포구로 98,37.40736414,126.7356708,해당 없음,2024-08-23
161,노인여가복지시설,논현주공14단지아파트,인천광역시 남동구 청능대로715번길 22,37.41020385,126.7358038,해당 없음,2024-08-23
162,노인여가복지시설,논현신영지웰아파트,인천광역시 남동구 소래역로 93,37.40368686,126.7305256,해당 없음,2024-08-23
163,노인여가복지시설,논현한라아파트,인천광역시 남동구 포구로 64-6,37.40413964,126.7374756,해당 없음,2024-08-23
164,노인여가복지시설,유호엔씨티,인천광역시 남동구 포구로 35,37.40116337,126.7380563,해당 없음,2024-08-23
165,노인여가복지시설,하나소망,인천광역시 남동구 앵고개로941번길 11-22,37.40283618,126.7335443,해당 없음,2024-08-23
166,노인여가복지시설,논현푸르지오경로당,인천광역시 남동구 포구로 40,37.40294233,126.7384218,해당 없음,2024-08-23
167,노인여가복지시설,사할린,인천광역시 남동구 논현고잔로 211-15,37.40067185,126.7158147,해당 없음,2024-08-23
168,노인여가복지시설,동보아파트,인천광역시 남동구 남동대로370번길 122,37.41317957,126.7117833,해당 없음,2024-08-23
169,노인여가복지시설,논현주공아파트 1단지,인천광역시 남동구 호구포로 294,37.40983638,126.7134106,해당 없음,2024-08-23
170,노인여가복지시설,논현주공아파트 2-1단지,인천광역시 남동구 함박뫼로 439,37.41187493,126.7111279,해당 없음,2024-08-23
171,노인여가복지시설,논현주공아파트 2-2단지,인천광역시 남동구 함박뫼로 439,37.41187493,126.7111279,해당 없음,2024-08-23
172,노인여가복지시설,논현숲속마을 1단지,인천광역시 남동구 은봉로165번길 24,37.40656868,126.7103829,해당 없음,2024-08-23
173,노인여가복지시설,논현범마을 2단지,인천광역시 남동구 은봉로166번길 27,37.40333543,126.7096928,해당 없음,2024-08-23
174,노인여가복지시설,논현하늘마을 3단지,인천광역시 남동구 논현로 45,37.40344256,126.7145703,해당 없음,2024-08-23
175,노인여가복지시설,논현하늘마을 4단지,인천광역시 남동구 논현로 81,37.40275263,126.7157567,해당 없음,2024-08-23
176,노인여가복지시설,논현주공5단지아파트,인천광역시 남동구 논현로 105,37.40267855,126.7188979,해당 없음,2024-08-23
177,노인여가복지시설,어진마을한화꿈에그린아파트,인천광역시 남동구 논현로 106,37.40096425,126.7203501,해당 없음,2024-08-23
178,노인여가복지시설,논현신일해피트리 7단지,인천광역시 남동구 은봉로 288,37.4039618,126.7225807,해당 없음,2024-08-23
179,노인여가복지시설,논현논고개마을경로당,인천광역시 남동구 은봉로 297,37.40584293,126.7223907,해당 없음,2024-08-23
180,노인여가복지시설,고잔,인천광역시 남동구 앵고개로697번길 59,37.39150961,126.7151126,해당 없음,2024-08-23
181,노인여가복지시설,동촌,인천광역시 남동구 고잔로 100-14,37.38832699,126.7157654,해당 없음,2024-08-23
182,노인여가복지시설,소래휴먼시아 1단지,인천광역시 남동구 앵고개로815번길 70,37.39825485,126.7231067,해당 없음,2024-08-23
183,노인여가복지시설,소래휴먼시아 3단지,인천광역시 남동구 앵고개로815번길 22,37.39815587,126.7247911,해당 없음,2024-08-23
184,노인여가복지시설,소래LH4단지,인천광역시 남동구 논고개로68번길 34,37.39854657,126.7284438,해당 없음,2024-08-23
185,노인여가복지시설,에코메트로5단지,인천광역시 남동구 소래역남로 39,37.39858043,126.7307585,해당 없음,2024-08-23
186,노인여가복지시설,에코메트로6단지,인천광역시 남동구 아암대로1503번길 98,37.39471819,126.7285423,해당 없음,2024-08-23
187,노인여가복지시설,에코메트로7단지,인천광역시 남동구 에코중앙로 163,37.39366107,126.7257594,해당 없음,2024-08-23
188,노인여가복지시설,에코메트로9단지,인천광역시 남동구 에코중앙로 96,37.38725288,126.7222542,해당 없음,2024-08-23
189,노인여가복지시설,에코메트로10단지,인천광역시 남동구 아암대로1503번길 21,37.39116252,126.7280263,해당 없음,2024-08-23
190,노인여가복지시설,에코메트로한화11단지,인천광역시 남동구 논고개로 17,37.39535478,126.7307677,해당 없음,2024-08-23
191,노인여가복지시설,에코메트로한화12단지,인천광역시 남동구 논고개로 10,37.39787315,126.7337068,해당 없음,2024-08-23
192,노인여가복지시설,논현힐스테이트아파트,인천광역시 남동구 논고개로68번길 49,37.40087373,126.7295114,해당 없음,2024-08-23
193,노인여가복지시설,에코메트로더타워,인천광역시 남동구 소래역남로 40,37.40018244,126.7322675,해당 없음,2024-08-23
194,노인주거복지시설,소망의집,인천광역시 남동구 논현고잔로88번길 35(고잔동),37.39074797,126.7146739,41,2024-08-23
195,노인의료복지시설,초도노인요양원,인천광역시 남동구 호구포로739번길 19 (구월동),37.44817439,126.7174451,72,2024-08-23
196,노인의료복지시설,구세군남동평강의마을,인천광역시 남동구 고잔로 20 (고잔동),37.39485634,126.7162979,71,2024-08-23
197,노인의료복지시설,만수요양원,인천광역시 남동구 인주대로888번길 20 (만수동),37.44740374,126.7354161,75,2024-08-23
198,노인의료복지시설,성화은혜노인요양원,인천광역시 남동구 서판로53번길 15 (만수동),37.4646728,126.7258224,7,2024-08-23
199,노인의료복지시설,예수사랑노인복지원,인천광역시 남동구 덕골로 117-1 (수산동),37.43040489,126.7231828,24,2024-08-23
200,노인의료복지시설,금빛요양원,"인천광역시 남동구 하촌로 18, 4층 (만수동, 덕양빌딩)",37.44973693,126.7311613,9,2024-08-23
201,노인의료복지시설,박사요양원,인천광역시 남동구 남동대로921번길 29 (간석동),37.46484844,126.7063088,76,2024-08-23
202,노인의료복지시설,아름다운세상만들기요양원,인천광역시 남동구 용부리안길 68 (운연동),37.43530132,126.7694617,19,2024-08-23
203,노인의료복지시설,정진의료재단 영화요양원,"인천광역시 남동구 소래역로 42, 5층 501호 (논현동, 소래타워)",37.40082392,126.7349561,27,2024-08-23
204,노인의료복지시설,천사노인요양원,"인천광역시 남동구 구월로 335, 3층 (만수동, 녹수빌딩)",37.45549691,126.7280237,9,2024-08-23
205,노인의료복지시설,가족사랑요양원,"인천광역시 남동구 구월로 320-1, 5층 (만수동, 국제빌딩)",37.45521705,126.7262992,9,2024-08-23
206,노인의료복지시설,성녀모니카의집요양원,인천광역시 남동구 만수서로37번길 81 (만수동),37.45977911,126.7273974,73,2024-08-23
207,노인의료복지시설,남동노아요양원,"인천광역시 남동구 인주대로763번길 50, 2,4층 (구월동)",37.45133705,126.7224431,48,2024-08-23
208,노인의료복지시설,사랑요양원,인천광역시 남동구 호구포로765번길 9 (구월동),37.45059632,126.7181045,28,2024-08-23
209,노인의료복지시설,남동바다의별요양원,"인천광역시 남동구 호구포로 221, 6층 (논현동, 남동메디칼센타)",37.40277676,126.7096911,20,2024-08-23
210,노인의료복지시설,인천효요양원,"인천광역시 남동구 석정로 516, 7~9층 (간석동)",37.46547619,126.6929253,49,2024-08-23
211,노인의료복지시설,글라라의집,"인천광역시 남동구 논고개로 101, 1401호 (논현동, 아름다운타워)",37.39999878,126.7243985,28,2024-08-23
212,노인의료복지시설,(인천)VIP요양원,인천광역시 남동구 인주대로 813 (구월동),37.44893369,126.7276827,62,2024-08-23
213,노인의료복지시설,행복한남촌요양원,"인천광역시 남동구 남촌동로3번길 14 (남촌동, 2층, 3층 일부)",37.43135873,126.7172346,8,2024-08-23
214,노인의료복지시설,해피트리요양원,"인천광역시 남동구 구월남로 174 (구월동, 그랜드프라자 5층,7층)",37.45277771,126.7090708,96,2024-08-23
215,노인의료복지시설,예랑요양원,인천광역시 남동구 구월말로4번길 9-23 (구월동),37.45030023,126.7248906,28,2024-08-23
216,노인의료복지시설,행복한요양원,"인천광역시 남동구 구월로 320-1, 4층 (만수동, 국제빌딩)",37.45521705,126.7262992,9,2024-08-23
217,노인의료복지시설,참조은요양원1호,"인천광역시 남동구 석정로 467, 4층 (간석동, 화성빌딩)",37.46632774,126.6876428,8,2024-08-23
218,노인의료복지시설,참조은요양원2호,"인천광역시 남동구 석정로 467, 4층 (간석동, 화성빌딩)",37.46632774,126.6876428,9,2024-08-23
219,노인의료복지시설,사랑의마을요양원,인천광역시 남동구 도림북로19번길 37 (도림동),37.42312597,126.7317004,80,2024-08-23
220,노인의료복지시설,가인요양원,"인천광역시 남동구 청능대로 593, 9층 (논현동, 신성프라자)",37.40148341,126.7250398,22,2024-08-23
221,노인의료복지시설,에덴의집,"인천광역시 남동구 구월로 318, 4층 (만수동, 대성빌딩)",37.45527512,126.7258348,9,2024-08-23
222,노인의료복지시설,인향요양원,"인천광역시 남동구 인주대로 670, 2층 (구월동)",37.44909966,126.711383,81,2024-08-23
223,노인의료복지시설,라엘요양원,"인천광역시 남동구 하촌로 55 (만수동, 4층,5층일부,6층)",37.45288174,126.7328601,24,2024-08-23
224,노인의료복지시설,천사의집1호,"인천광역시 남동구 남동대로774번길 47, 2층 (구월동)",37.4513537,126.7106888,9,2024-08-23
225,노인의료복지시설,천사의집2호,"인천광역시 남동구 남동대로774번길 47, 3층 (구월동)",37.4513537,126.7106888,8,2024-08-23
226,노인의료복지시설,미소지움요양원,"인천광역시 남동구 청능대로 593, 2~3층 (논현동, 신성프라자)",37.40148341,126.7250398,29,2024-08-23
227,노인의료복지시설,참좋은요양원,인천광역시 남동구 서판로 52 (만수동),37.46391339,126.7255866,36,2024-08-23
228,노인의료복지시설,신논현요양원,"인천광역시 남동구 논고개로 120, 6층 (논현동, 논현프라자)",37.40199935,126.7244211,28,2024-08-23
229,노인의료복지시설,아이러브요양원,"인천광역시 남동구 청능대로 559, 8,9층 (논현동, 논현메디컬센터)",37.40090402,126.7214467,45,2024-08-23
230,노인의료복지시설,소래실버요양원,"인천광역시 남동구 소래역남로16번길 8-31 (논현동, 2층일부,3,4층)",37.39820395,126.7359939,46,2024-08-23
231,노인의료복지시설,새소망요양원,인천광역시 남동구 구월로131번길 41 (간석동),37.45867723,126.7047422,49,2024-08-23
232,노인의료복지시설,남동노인요양센터,"인천광역시 남동구 소래로 640, 지1층, 2~5층 (만수동, 호성빌딩)",37.44670524,126.7332919,95,2024-08-23
233,노인의료복지시설,축복요양원,"인천광역시 남동구 석정로 467, 3층 (간석동, 화성빌딩)",37.46632774,126.6876428,9,2024-08-23
234,노인의료복지시설,무궁채요양원,"인천광역시 남동구 담방로60번길 23, 1~4층 (만수동)",37.44539892,126.7400606,29,2024-08-23
235,노인의료복지시설,갤럭시요양원,"인천광역시 남동구 남동대로 931, 지하1, 7~9층 (간석동)",37.46548313,126.7074961,77,2024-08-23
236,노인의료복지시설,효은요양원,"인천광역시 남동구 서창남순환로216번길 30, 601호 (서창동, 대홍프라자)",37.42286934,126.7490693,29,2024-08-23
237,노인의료복지시설,우리집요양원,"인천광역시 남동구 호구포로 897, 6층 (간석동)",37.4624844,126.7200834,24,2024-08-23
238,노인의료복지시설,다우리요양원,"인천광역시 남동구 서창남순환로215번길 35, 601호 (서창동, 승민프라자)",37.42548814,126.7470599,49,2024-08-23
239,노인의료복지시설,사랑의쉼터요양원,"인천광역시 남동구 호구포로 897, 3,4층 (간석동)",37.4624844,126.7200834,49,2024-08-23
240,노인의료복지시설,노블레사요양원,"인천광역시 남동구 서창남순환로216번길 20, 7층 (서창동, 승연프라자)",37.42319992,126.7488039,29,2024-08-23
241,노인의료복지시설,실버프리 인천,인천광역시 남동구 석정로 473-2 (간석동),37.46639782,126.6882746,74,2024-08-23
242,노인의료복지시설,성심사랑요양원,"인천광역시 남동구 인주대로 909 (만수동, 성심사랑요양원)",37.44847365,126.7385738,48,2024-08-23
243,노인의료복지시설,만수효요양원,"인천광역시 남동구 장승로 18, 3층 (만수동, 장승백이빌딩)",37.44599989,126.734739,28,2024-08-23
244,노인의료복지시설,존엄케어요양원,"인천광역시 남동구 논고개로 121, 10층 (논현동, 에스닷몰)",37.40192922,126.7237672,29,2024-08-23
245,노인의료복지시설,호구포요양원,"인천광역시 남동구 호구포로 214, 5층 (논현동)",37.40198793,126.710066,23,2024-08-23
246,노인의료복지시설,영재요양원,인천광역시 남동구 만수서로37번길 11 (만수동),37.46194761,126.7296327,74,2024-08-23
247,노인의료복지시설,평강요양원,"인천광역시 남동구 앵고개로 928, 5층 (논현동)",37.40171225,126.7337665,63,2024-08-23
248,노인의료복지시설,에덴요양원,인천광역시 남동구 찬우물로 45 (수산동),37.43700353,126.7217939,28,2024-08-23
249,노인의료복지시설,자연실버타운,인천광역시 남동구 논고개로 273 (도림동),37.41505746,126.7262785,38,2024-08-23
250,노인의료복지시설,웃음꽃피는마을 요양원,"인천광역시 남동구 예술로 206, 7층 (구월동)",37.45242769,126.701787,9,2024-08-23
251,노인의료복지시설,새날요양원,"인천광역시 남동구 석산로 248, 4층 (구월동)",37.46061532,126.7197196,9,2024-08-23
252,노인의료복지시설,코끼리요양원,인천광역시 남동구 수현로14번길 13-26 (장수동),37.46455708,126.7495966,129,2024-08-23
253,노인의료복지시설,괜찮은요양원,"인천광역시 남동구 논현로26번길 15, 5층 (논현동)",37.40229548,126.7093492,21,2024-08-23
254,노인의료복지시설,오렌지요양원,인천광역시 남동구 석산로 181 (간석동),37.46077501,126.7120193,49,2024-08-23
255,노인의료복지시설,세인트요양원,"인천광역시 남동구 호구포로 826, 3,5~7층 (구월동)",37.45618267,126.7197612,29,2024-08-23
256,노인의료복지시설,두경요양원,"인천광역시 남동구 백범로 417, 2,3,6층 (간석동, 준명빌딩)",37.46730048,126.7047744,29,2024-08-23
257,노인의료복지시설,인성요양원,인천광역시 남동구 경인로 599 (간석동),37.46502436,126.7042711,49,2024-08-23
258,노인의료복지시설,드림팰리스 요양원,인천광역시 남동구 도림북로 48 (도림동),37.42581973,126.7333497,147,2024-08-23
259,노인의료복지시설,간석실버요양원,"인천광역시 남동구 경인로 520, 203,503호 (간석동, 탑프라자)",37.46074602,126.6970316,46,2024-08-23
260,노인의료복지시설,크리스마스요양원,인천광역시 남동구 경신로60번길 8 (수산동),37.44302944,126.7266186,45,2024-08-23
261,노인의료복지시설,논현요양원,"인천광역시 남동구 청능대로 583, 1101호 (논현동)",37.40138139,126.7239346,29,2024-08-23
262,노인의료복지시설,굿모닝요양원,인천광역시 남동구 덕골로 116 (수산동),37.42986837,126.7227286,81,2024-08-23
263,노인의료복지시설,(주)예손제이헤븐요양원,"인천광역시 남동구 논고개로 118, 1001호 (논현동, 양진타워)",37.4016939,126.7245054,24,2024-08-23
264,노인의료복지시설,아가페요양원,"인천광역시 남동구 남동대로916번길 75, 5층 (간석동, 간석프라자)",37.46366332,126.7124785,25,2024-08-23
265,노인의료복지시설,서창효요양원,"인천광역시 남동구 매소홀로 1090, 2층 (서창동, 구룡이화빌딩)",37.43812979,126.7436628,9,2024-08-23
266,노인의료복지시설,서창효요양원2,"인천광역시 남동구 매소홀로 1090, 2층 (서창동, 구룡이화빌딩)",37.43812979,126.7436628,9,2024-08-23
267,노인의료복지시설,한마음요양원,"인천광역시 남동구 인주대로 670, 10, 11층 (구월동, 인향콤비타워)",37.44909966,126.711383,69,2024-08-23
268,노인의료복지시설,삼성요양원,"인천광역시 남동구 만수서로 101, 501호 (만수동)",37.46148047,126.7373383,36,2024-08-23
269,노인의료복지시설,인천YWCA요양원,"인천광역시 남동구 정각로 8, 5~7층 (구월동, 인천YWCA회관)",37.45483502,126.7027513,27,2024-08-23
270,노인의료복지시설,자연노인전문요양원,인천광역시 남동구 만수로15번길 5 (만수동),37.45862153,126.7303558,29,2024-08-23
271,노인의료복지시설,은빛사랑재활요양원,"인천광역시 남동구 구월남로 126, 4층 401호 (구월동, 동우메트로피아)",37.45295977,126.7034731,17,2024-08-23
272,노인의료복지시설,박사요양원Ⅱ,"인천광역시 남동구 남동대로915번길 43, 4~5층 (간석동)",37.46458482,126.7052734,44,2024-08-23
273,노인의료복지시설,참사랑요양원,"인천광역시 남동구 남동대로916번길 75, 3층 (간석동, 간석프라자)",37.46366332,126.7124785,25,2024-08-23
274,노인의료복지시설,한빛요양원,"인천광역시 남동구 백범로247번길 93-12 (만수동, 지하1층~10층)",37.45617437,126.722327,82,2024-08-23
275,노인의료복지시설,봄날요양원,"인천광역시 남동구 논현로 40, 6~7층 (논현동)",37.40226508,126.7106937,49,2024-08-23
276,노인의료복지시설,맘편한요양원,"인천광역시 남동구 인주대로 865, 4,5층 (만수동)",37.44862761,126.7335873,38,2024-08-23
277,노인의료복지시설,새가나안요양원,"인천광역시 남동구 청능대로595번길 17, 2층 (논현동, 성지타워)",37.40215688,126.7248251,25,2024-08-23
278,노인의료복지시설,인천은빛요양원,"인천광역시 남동구 하촌로 26, 7층 701,702호 (만수동, 거신빌딩)",37.45023031,126.7317972,29,2024-08-23
279,노인의료복지시설,예은요양원,"인천광역시 남동구 청능대로 581, 10층 (논현동, 광성프라자)",37.40127852,126.7235863,25,2024-08-23
280,노인의료복지시설,효다솜요양원,"인천광역시 남동구 청능대로 581, 9층 (논현동, 광성프라자)",37.40127852,126.7235863,25,2024-08-23
281,노인의료복지시설,예사랑요양원,"인천광역시 남동구 호구포로 221, 8층 (논현동)",37.40277676,126.7096911,20,2024-08-23
282,노인의료복지시설,도림너싱홈요양원,인천광역시 남동구 도림북로16번길 55 (도림동),37.42461236,126.7341948,79,2024-08-23
283,노인의료복지시설,한결소래빌리지,"인천광역시 남동구 앵고개로 944 (논현동, 2~4층)",37.40245995,126.7354369,63,2024-08-23
284,노인의료복지시설,그린케어요양원,"인천광역시 남동구 예술로 206, 701호 (구월동)",37.45242769,126.701787,28,2024-08-23
285,노인의료복지시설,다솜요양원,"인천광역시 남동구 청능대로 581, 11, 12층 (논현동, 광성프라자)",37.40127852,126.7235863,36,2024-08-23
286,노인의료복지시설,제일요양원,"인천광역시 남동구 호구포로 893, 6층 (간석동)",37.46216824,126.7200096,9,2024-08-23
287,노인의료복지시설,공감요양원,"인천광역시 남동구 주안로 231, 3층 (간석동)",37.4635051,126.6955708,9,2024-08-23
288,노인의료복지시설,가족공감요양원,"인천광역시 남동구 구월로 335 (만수동, 녹수빌딩)",37.45549691,126.7280237,9,2024-08-23
289,노인의료복지시설,사랑채노인요양원,"인천광역시 남동구 장승남로 66, 401호 (만수동)",37.44320413,126.7395663,29,2024-08-23
290,노인의료복지시설,효나눔의 집,"인천광역시 남동구 백범로273번길 9, 3층 (간석동, 수정빌딩)",37.46119416,126.719088,9,2024-08-23
291,노인의료복지시설,세인트재활요양원,"인천광역시 남동구 앵고개로934번길 5, 6층 (논현동, 씨티짱)",37.40184409,126.7351422,29,2024-08-23
292,노인의료복지시설,서창요양원1호점,"인천광역시 남동구 매소홀로 1090, 3층 (서창동, 구룡이화빌딩)",37.43812979,126.7436628,9,2024-08-23
293,노인의료복지시설,서창요양원2호점,"인천광역시 남동구 매소홀로 1090, 3층 (서창동, 구룡이화빌딩)",37.43812979,126.7436628,9,2024-08-23
294,노인의료복지시설,간석아가페요양원,"인천광역시 남동구 남동대로916번길 75, 2층 (간석동, 간석프라자)",37.46366332,126.7124785,25,2024-08-23
295,노인의료복지시설,그레이스요양원,인천광역시 남동구 당좌로 27 (구월동),37.45846981,126.717959,29,2024-08-23
296,노인의료복지시설,소망요양원,"인천광역시 남동구 호구포로 897, 5층 (간석동)",37.4624844,126.7200834,24,2024-08-23
297,노인의료복지시설,남동효요양원,"인천광역시 남동구 남동대로916번길 75, 4층 (간석동)",37.46366332,126.7124785,25,2024-08-23
298,노인의료복지시설,평화요양원,"인천광역시 남동구 호구포로 915, 201호 (간석동, 호산빌딩)",37.46420959,126.7204722,9,2024-08-23
299,노인의료복지시설,가족공감요양원2,"인천광역시 남동구 구월로 337, 5층 (만수동, 평산빌딩)",37.45548157,126.7282726,9,2024-08-23
300,노인의료복지시설,논현명품요양원,"인천광역시 남동구 앵고개로934번길 5, 302호 (논현동, 씨티짱)",37.40184409,126.7351422,29,2024-08-23
301,노인의료복지시설,은빛사랑재활요양원 논현점,"인천광역시 남동구 논고개로 118, 401호 (논현동)",37.4016939,126.7245054,23,2024-08-23
302,노인의료복지시설,주연요양원,"인천광역시 남동구 논현고잔로135번길 9, 401, 503호 (고잔동)",37.39518052,126.7129608,43,2024-08-23
303,노인의료복지시설,보금자리요양원,"인천광역시 남동구 남동대로 742, 3층 (구월동, 대화빌딩)",37.44849267,126.7077769,8,2024-08-23
304,노인의료복지시설,경인실버요양원,"인천광역시 남동구 인주대로 719, 4층 (구월동)",37.44948501,126.7169933,9,2024-08-23
305,노인의료복지시설,숲재활요양원,인천광역시 남동구 도림북로19번길 11 (도림동),37.42413548,126.7308926,38,2024-08-23
306,노인의료복지시설,인천광역시립요양원,인천광역시 남동구 비류대로762번길 123 (도림동),37.41739769,126.7235389,104,2024-08-23
307,노인의료복지시설,길재활요양원,인천광역시 남동구 인주대로751번길 11 (구월동),37.44975913,126.720673,74,2024-08-23
308,노인의료복지시설,만수글라라의집요양원1호,"인천광역시 남동구 장승로 49-1, 3층 (만수동)",37.4455059,126.738262,9,2024-08-23
309,노인의료복지시설,만수글라라의집요양원2호,"인천광역시 남동구 장승로 49-1, 4층 (만수동)",37.4455059,126.738262,9,2024-08-23
310,노인의료복지시설,더사랑요양원,"인천광역시 남동구 구월로 318, 5층 (만수동)",37.45527512,126.7258348,9,2024-08-23
311,노인의료복지시설,사랑가득요양원,"인천광역시 남동구 논현고잔로135번길 9 (고잔동, 세일빌딩 301호, 302호 ,303호, 501호)",37.39518052,126.7129608,49,2024-08-23
312,노인의료복지시설,실버프리인천요양원,인천광역시 남동구 석정로 473-2 (간석동),37.46639782,126.6882746,0,2024-08-23
313,노인의료복지시설,예가온요양원,"인천광역시 남동구 담방로 80, 제지~6층 (만수동)",37.44653534,126.7393183,0,2024-08-23
314,노인의료복지시설,실버프리인천요양원,인천광역시 남동구 석정로 473-2 (간석동),37.46639782,126.6882746,0,2024-08-23
315,재가노인복지시설,남동재가노인지원서비스센터,"인천광역시 남동구 구월말로120번길 22, 2층 (만수동)",37.45891392,126.7265417,0,2024-08-23
316,재가노인복지시설,남동엔젤스노인복지센터,"인천광역시 남동구 백범로 370, 205호 (간석동)",37.46641213,126.7100575,0,2024-08-23
317,재가노인복지시설,굿하트 재가복지센터 인천남동,"인천광역시 남동구 구월남로 92 (구월동, 2~3층)",37.45341184,126.6995095,0,2024-08-23
318,재가노인복지시설,송이노인복지센터,"인천광역시 남동구 구월말로 59 (만수동, 2층 일부)",37.45439884,126.7247872,0,2024-08-23
319,재가노인복지시설,길상화노인복지센터,"인천광역시 남동구 구월남로 349, 가동 1층 1호 (만수동, 이림휴먼빌리지)",37.45188975,126.728582,0,2024-08-23
320,재가노인복지시설,(A+)동행노인복지센터,"인천광역시 남동구 남동대로 901, 2층 (간석동)",37.46286581,126.7079254,32,2024-08-23
321,재가노인복지시설,참좋은주야간보호센터,인천광역시 남동구 서판로 52 (만수동),37.46391339,126.7255866,23,2024-08-23
322,재가노인복지시설,미소주간보호센터,"인천광역시 남동구 서창남순환로216번길 36, 403호,404호 (서창동, 리치타워)",37.42257396,126.7492549,0,2024-08-23
323,재가노인복지시설,나래재가복지센터,"인천광역시 남동구 복개동로56번길 34, 1층 (만수동)",37.4526095,126.7276431,0,2024-08-23
324,재가노인복지시설,인천노인주간보호센터논현점,"인천광역시 남동구 앵고개로847번길 56, 3층 301,302호 (논현동)",37.3985301,126.7252366,56,2024-08-23
325,재가노인복지시설,다사랑주야간보호센터,"인천광역시 남동구 논고개로 81, 7층 (논현동, 우리들메디타워)",37.39869042,126.7259002,0,2024-08-23
326,재가노인복지시설,어진주야간보호센터,"인천광역시 남동구 서창방산로 51, 3층 304 305호 (서창동)",37.42234062,126.7501965,0,2024-08-23
327,재가노인복지시설,광명노인복지센터,"인천광역시 남동구 호구포로 294-1, 203호 (논현동)",37.40882409,126.713123,0,2024-08-23
328,재가노인복지시설,평안방문요양복지센터,"인천광역시 남동구 장승로 25, 5동 301호 (만수동, 장승백이상가)",37.44566014,126.7358296,0,2024-08-23
329,재가노인복지시설,라파주야간보호센터,"인천광역시 남동구 장승남로 66, 305호 (만수동, 현대프라자)",37.44320413,126.7395663,0,2024-08-23
330,재가노인복지시설,나날주야간보호센터,"인천광역시 남동구 만수서로 52, 5층 (만수동, 쓰리제이프라자)",37.46145691,126.731766,48,2024-08-23
331,재가노인복지시설,빛나리주간보호센터,"인천광역시 남동구 남촌동로35번길 14, 3층 (남촌동)",37.4314933,126.7146901,0,2024-08-23
332,재가노인복지시설,정다운하루 방문간호센터,"인천광역시 남동구 담방로21번길 55, 230호 (만수동)",37.44131441,126.735575,0,2024-08-23
333,재가노인복지시설,으뜸노인재활주간보호센터,"인천광역시 남동구 매소홀로 1118, 2층호 (서창동, 현대프라자)",37.43815373,126.7467699,0,2024-08-23
334,재가노인복지시설,해피노인방문요양센터,인천광역시 남동구 만수로27번길 22-10 (만수동),37.46026375,126.7314132,0,2024-08-23
335,재가노인복지시설,도움재가노인복지센터,"인천광역시 남동구 소래로 500, 136호 (수산동, 남동체육관)",37.43466364,126.7337884,0,2024-08-23
336,재가노인복지시설,에덴주야간보호센터,인천광역시 남동구 찬우물로 45 (수산동),37.43700353,126.7217939,0,2024-08-23
337,재가노인복지시설,웃음꽃피는마을주간보호센터,"인천광역시 남동구 예술로 206, A동 701호 (구월동, 중앙프라자)",37.45242769,126.701787,0,2024-08-23
338,재가노인복지시설,승진노인복지센터,"인천광역시 남동구 논현역로 8, 302호 (논현동, 태성프라자)",37.40146682,126.7209966,0,2024-08-23
339,재가노인복지시설,MH 엄마손 실버복지용구,"인천광역시 남동구 백범로 203, 103,104호 (만수동)",37.45945079,126.7261935,0,2024-08-23
340,재가노인복지시설,새날주간보호센터,"인천광역시 남동구 석산로 248, 4층 (구월동)",37.46061532,126.7197196,0,2024-08-23
341,재가노인복지시설,미래교육 재가노인지원서비스센터,"인천광역시 남동구 문화로145번길 15, 4층 (구월동)",37.45192696,126.6988571,0,2024-08-23
342,재가노인복지시설,다빈재가복지센터,"인천광역시 남동구 주안로259번길 17, 1층 (간석동)",37.46403556,126.6987379,0,2024-08-23
343,재가노인복지시설,가정방문요양센터,"인천광역시 남동구 담방로 105, 702동 104,113호 (만수동)",37.44839404,126.7395584,0,2024-08-23
344,재가노인복지시설,성산재가복지센터,"인천광역시 남동구 용천로17번길 51, 1동 203호 (구월동, 무궁화빌라)",37.45108059,126.7112586,0,2024-08-23
345,재가노인복지시설,가온노인재가센터,"인천광역시 남동구 하촌서로 50, 102호 (만수동)",37.45304136,126.7300997,0,2024-08-23
346,재가노인복지시설,정나눔방문요양센터,"인천광역시 남동구 장승남로 75, 102호 (만수동)",37.44354048,126.7406907,0,2024-08-23
347,재가노인복지시설,두경재가센터,"인천광역시 남동구 백범로 417, 6층 (간석동)",37.46730048,126.7047744,0,2024-08-23
348,재가노인복지시설,민들레재가복지센터,"인천광역시 남동구 담방로21번길 55, 2층 23호 (만수동, 뉴서울종합상가)",37.44131441,126.735575,0,2024-08-23
349,재가노인복지시설,사랑재가복지센터,"인천광역시 남동구 주안로 234, 2층 204호 (간석동, 풍림아파트상가)",37.46307892,126.6961434,0,2024-08-23
350,재가노인복지시설,시온노인복지센터,"인천광역시 남동구 남동대로 719, 4층 (구월동, 구일빌딩)",37.44660862,126.7068713,0,2024-08-23
351,재가노인복지시설,이삭노인요양복지센터,"인천광역시 남동구 호구포로928번길 7, 1층 101호 (간석동, 미래프라자)",37.46523661,126.7212913,0,2024-08-23
352,재가노인복지시설,큰딸노인재가복지시설,"인천광역시 남동구 만수로 8, 2층 (만수동)",37.45794454,126.7302429,0,2024-08-23
353,재가노인복지시설,태양재가복지센터,"인천광역시 남동구 만의골로 202, 103호 (장수동)",37.46067823,126.7732739,0,2024-08-23
354,재가노인복지시설,정성노인복지센터,"인천광역시 남동구 서창남순환로215번길 36, 3층 301호 (서창동, 리치프라자)",37.42575645,126.747722,0,2024-08-23
355,재가노인복지시설,새희망재가복지센터,"인천광역시 남동구 방축로 488-3, 2층 (간석동, 스카이빌딩)",37.46709062,126.6922529,0,2024-08-23
356,재가노인복지시설,효심재가노인복지센터,"인천광역시 남동구 소래로 689, 2층 (만수동)",37.45112987,126.7350257,0,2024-08-23
357,재가노인복지시설,더나은재가요양복지센터,"인천광역시 남동구 남동대로 730, 2층 (구월동, 동아빌딩)",37.44743693,126.7076368,0,2024-08-23
358,재가노인복지시설,선한케어복지센터,"인천광역시 남동구 남동대로370번길 114, 상가동 202호 (논현동, 동보아파트)",37.41341441,126.7118358,0,2024-08-23
359,재가노인복지시설,인천YWCA재가복지센터,"인천광역시 남동구 정각로 8, 5~7층 (구월동, 인천YWCA회관)",37.45483502,126.7027513,0,2024-08-23
360,재가노인복지시설,100세동안 남동구점,"인천광역시 남동구 구월남로 172, 1층 107호 (구월동)",37.45275254,126.7084157,0,2024-08-23
361,재가노인복지시설,기억정원데이케어센터,"인천광역시 남동구 호구포로 915, 3층 301호 (간석동)",37.46420959,126.7204722,0,2024-08-23
362,재가노인복지시설,영재재가센터,"인천광역시 남동구 만수서로37번길 11, 1층 (만수동)",37.46194761,126.7296327,0,2024-08-23
363,재가노인복지시설,복사꽃재가노인복지센터,"인천광역시 남동구 남동대로765번길 17, 304호 (구월동, 수지인텔리타워)",37.45060723,126.7066895,0,2024-08-23
364,재가노인복지시설,현대복지용구,"인천광역시 남동구 복개서로35번길 17-10, 201(우측)호 (구월동)",37.44984054,126.7265485,0,2024-08-23
365,재가노인복지시설,효담재가노인복지센터,"인천광역시 남동구 소래역서로 6-10, 101호 (논현동)",37.40268937,126.7316154,0,2024-08-23
366,재가노인복지시설,샬롬방문요양센터,"인천광역시 남동구 담방로 105, 7702동 210호 (만수동)",37.45042499,126.7398973,0,2024-08-23
367,재가노인복지시설,온누리노인복지센터,"인천광역시 남동구 백범로 254, 8층 (간석동, 대하빌딩)",37.4609929,126.7213069,0,2024-08-23
368,재가노인복지시설,효나누미노인복지센터,"인천광역시 남동구 남동대로884번길 41, 103호 (간석동)",37.46158261,126.7108864,0,2024-08-23
369,재가노인복지시설,늘푸른방문요양센터,"인천광역시 남동구 매소홀로 1119, 2층 201호 (서창동, 제상가동)",37.4386355,126.7471686,0,2024-08-23
370,재가노인복지시설,가천재가센터,"인천광역시 남동구 구월로131번길 20, 2층 201호 (간석동)",37.45784289,126.705073,0,2024-08-23
371,재가노인복지시설,케어닥방문요양센터인천점,"인천광역시 남동구 남동대로799번길 34, B동 124호 (구월동, 신영구월지웰시티푸르지오)",37.45407064,126.707828,0,2024-08-23
372,재가노인복지시설,세움재가복지센터,"인천광역시 남동구 호구포로 214, 4층 403-1호 (논현동, 대진메디컬프라자)",37.40198793,126.710066,0,2024-08-23
373,재가노인복지시설,가정재가노인복지센터,"인천광역시 남동구 인주대로751번길 19, 1층 (구월동)",37.45003913,126.720736,0,2024-08-23
374,재가노인복지시설,'(A)비지팅엔젤스 인천남동논현방문요양지점,"인천광역시 남동구 남동대로 728, 5층 502호 (구월동)",37.44722936,126.7076065,0,2024-08-23
375,재가노인복지시설,와우복지용구,"인천광역시 남동구 앵고개로 963, 1층 (논현동)",37.40361243,126.737044,0,2024-08-23
376,재가노인복지시설,이든재가노인복지센터,"인천광역시 남동구 만수서로105번길 33, 201호 (만수동)",37.46248832,126.7389038,0,2024-08-23
377,재가노인복지시설,해바라기방문요양센터,"인천광역시 남동구 백범로 309, 1층 (간석동)",37.46315474,126.7154261,0,2024-08-23
378,재가노인복지시설,힐링방문요양주간보호센터,"인천광역시 남동구 담방서로23번길 27, 1층 (만수동)",37.44699924,126.7363496,0,2024-08-23
379,재가노인복지시설,한울노인주야간보호센터,"인천광역시 남동구 구월로 312, 2층 (만수동, 경인빌딩)",37.45529631,126.7252919,0,2024-08-23
380,재가노인복지시설,효성재가복지센터,"인천광역시 남동구 경인로 554, 308호 (간석동, 효성오피스텔)",37.46246706,126.7003137,0,2024-08-23
381,재가노인복지시설,단비노인복지센터,"인천광역시 남동구 인주대로 770-1, 2층 (구월동, 하나빌딩)",37.44865489,126.7227147,0,2024-08-23
382,재가노인복지시설,엘림방문간호,"인천광역시 남동구 예술로226번길 18, 205호 (구월동, VIP오피스텔)",37.45398081,126.702913,0,2024-08-23
383,재가노인복지시설,예은재가복지센터,"인천광역시 남동구 청능대로 581, 10층 (논현동)",37.40127852,126.7235863,0,2024-08-23
384,재가노인복지시설,꿈사재가복지센터,"인천광역시 남동구 장승로 49, 3층 (만수동, 동명빌딩)",37.44545821,126.7380141,0,2024-08-23
385,재가노인복지시설,새희망노인복지센터,"인천광역시 남동구 복개서로35번길 17-10, 201호 (구월동)",37.44984054,126.7265485,0,2024-08-23
386,재가노인복지시설,(주)푸른숲실버케어 재가복지센터,"인천광역시 남동구 남동대로 757, 5층 (구월동)",37.45025121,126.7070912,0,2024-08-23
387,재가노인복지시설,온유방문요양센터,"인천광역시 남동구 하촌서로 59, 102호 (만수동, 신성빌딩)",37.45408395,126.729856,0,2024-08-23
388,재가노인복지시설,인천재가복지센터,"인천광역시 남동구 인주대로 839, 301호 (만수동)",37.44875804,126.7306241,0,2024-08-23
389,재가노인복지시설,친절한노인복지센터,"인천광역시 남동구 구월말로120번길 15, 1층 (만수동)",37.45920987,126.7264124,0,2024-08-23
390,재가노인복지시설,그린노인재가복지센터,"인천광역시 남동구 호구포로 294-1, 204호 (논현동, 논현주공아파트 제종합상가동)",37.40882409,126.713123,0,2024-08-23
391,재가노인복지시설,이랑방문요양센터,"인천광역시 남동구 담방로21번길 55, 2층 222호 (만수동, 뉴서울아파트 상가)",37.44131441,126.735575,0,2024-08-23
392,재가노인복지시설,정나눔복지센터,"인천광역시 남동구 장아산로 133, 3층 (서창동)",37.43908438,126.7495681,26,2024-08-23
393,재가노인복지시설,샬롬노인복지센터,"인천광역시 남동구 구월로 303, 3층 (만수동)",37.45581041,126.7245033,47,2024-08-23
394,재가노인복지시설,참사랑주야간보호센터,"인천광역시 남동구 백범로 332, 8층 (간석동)",37.4645323,126.7136731,26,2024-08-23
395,재가노인복지시설,더존노인재가복지센타,"인천광역시 남동구 소래역로30번길 58, 202호 (논현동)",37.4007467,126.7386958,0,2024-08-23
396,재가노인복지시설,명문요양복지센터,"인천광역시 남동구 복개서로 25, 202호 (구월동)",37.45004896,126.726658,0,2024-08-23
397,재가노인복지시설,소망노인복지센터,인천광역시 남동구 백범로226번길 53 (만수동),37.4627173,126.7249626,0,2024-08-23
398,재가노인복지시설,기쁨노인복지센터,"인천광역시 남동구 남동대로765번길 17, 701호 (구월동, 수지인텔리타워)",37.45060723,126.7066895,0,2024-08-23
399,재가노인복지시설,나누리노인복지센터,인천광역시 남동구 인주대로518번길 28-17 (구월동),37.449725,126.6936399,0,2024-08-23
400,재가노인복지시설,효다옴재가복지센터,인천광역시 남동구 인주대로681번길 19 (구월동),37.45047449,126.712693,0,2024-08-23
401,재가노인복지시설,어울림재가노인복지센터,"인천광역시 남동구 구월말로91번길 18-5, 1층 2호 (만수동)",37.45748238,126.7241359,0,2024-08-23
402,재가노인복지시설,모래내복지용구,"인천광역시 남동구 구월남로268번길 1, 1층 101호 (구월동)",37.45203561,126.7195492,0,2024-08-23
403,재가노인복지시설,행복한재가복지센터,"인천광역시 남동구 하촌로 41, 2층 (만수동)",37.4516953,126.7322924,0,2024-08-23
404,재가노인복지시설,내일재가노인복지시설,"인천광역시 남동구 백범로 399, 506호 (간석동)",37.4670088,126.7069386,0,2024-08-23
405,재가노인복지시설,공감노인복지센터,인천광역시 남동구 주안로 231 (간석동),37.4635051,126.6955708,0,2024-08-23
406,재가노인복지시설,동행노인재가센터,인천광역시 남동구 인주대로 770-1 (구월동),37.44865489,126.7227147,0,2024-08-23
407,재가노인복지시설,삼성요양재가복지센터,"인천광역시 남동구 인주대로 837, 202호 (만수동)",37.44877254,126.7302961,0,2024-08-23
408,재가노인복지시설,지키미재가복지센터,"인천광역시 남동구 구월로 73, 202호 (간석동, 금호상가 제6동)",37.45753164,126.6996982,0,2024-08-23
409,재가노인복지시설,바른손케어재가복지센터,인천광역시 남동구 남동대로884번길 66 (간석동),37.46148891,126.7122105,0,2024-08-23
410,재가노인복지시설,연세간호요양센타,"인천광역시 남동구 남동대로 895, 3층 1호 (간석동)",37.46238872,126.7079676,0,2024-08-23
411,재가노인복지시설,온빛노인복지센터,"인천광역시 남동구 백범로227번길 82, 203호 (만수동)",37.45657212,126.723281,0,2024-08-23
412,재가노인복지시설,더조은노인복지센터,"인천광역시 남동구 석산로169번길 18, 1층 (간석동)",37.46139318,126.710867,0,2024-08-23
413,재가노인복지시설,인천복지용구사업소,인천광역시 남동구 문화서로49번길 17 (구월동),37.44961771,126.6953484,0,2024-08-23
414,재가노인복지시설,힐링노인복지센터,"인천광역시 남동구 담방로21번길 55, 2층 17호 (만수동)",37.44131441,126.735575,0,2024-08-23
415,재가노인복지시설,사랑채노인복지센터,"인천광역시 남동구 구월말로16번길 12, 101호 (구월동)",37.45030304,126.7251505,0,2024-08-23
416,재가노인복지시설,어울림서창주간보호센터,"인천광역시 남동구 서창남순환로216번길 30, 5층 (서창동)",37.42286934,126.7490693,29,2024-08-23
417,재가노인복지시설,(A+)아람노인재활주간보호,"인천광역시 남동구 구월남로 216, 403, 404호 (구월동)",37.45250092,126.7134382,24,2024-08-23
418,재가노인복지시설,아들과딸인천논현주야간보호센타,"인천광역시 남동구 청능대로595번길 17, 5층 (논현동, 성지타워)",37.40215688,126.7248251,50,2024-08-23
419,재가노인복지시설,간석주야간보호센터,인천광역시 남동구 남동대로915번길 43 (간석동),37.46458482,126.7052734,50,2024-08-23
420,재가노인복지시설,자연숲실버쉼터주간보호센터,"인천광역시 남동구 논현로 40, 4층 (논현동, 더클라스 프라자)",37.40226508,126.7106937,41,2024-08-23
421,재가노인복지시설,헤아림복지센터,"인천광역시 남동구 남동대로 734, 3층 301호 (구월동)",37.44779802,126.7076984,0,2024-08-23
422,재가노인복지시설,은빛사랑재활주간보호센터,"인천광역시 남동구 구월남로 126, 301호 (구월동, 동우메트로피아)",37.45295977,126.7034731,53,2024-08-23
423,재가노인복지시설,미라클방문요양센터,"인천광역시 남동구 백범로124번길 7, 207호 (만수동, 만수주공상가)",37.45561744,126.7333791,0,2024-08-23
424,재가노인복지시설,시온실버케어센터,"인천광역시 남동구 용천로3번길 50-4, 302호 (구월동)",37.45012714,126.7114106,0,2024-08-23
425,재가노인복지시설,기쁨재가센터,"인천광역시 남동구 장승로 18, 3층 (만수동)",37.44599989,126.734739,0,2024-08-23
426,재가노인복지시설,힘찬복지용구,"인천광역시 남동구 앵고개로 928, 104호 (논현동)",37.40171225,126.7337665,0,2024-08-23
427,재가노인복지시설,만수글라라재가복지센터,"인천광역시 남동구 장승로 49-1, 3층 (만수동)",37.4455059,126.738262,0,2024-08-23
428,재가노인복지시설,만수글라라의집단기보호,"인천광역시 남동구 장승로 49-1, 4층 (만수동)",37.4455059,126.738262,0,2024-08-23
429,재가노인복지시설,케어대한재활주간보호센터,"인천광역시 남동구 구월남로 146, 201호 (구월동)",37.45281311,126.7057135,0,2024-08-23
430,재가노인복지시설,자비재가복지센터,"인천광역시 남동구 용천로 140, 101호 (간석동)",37.46202019,126.7146656,0,2024-08-23
431,재가노인복지시설,예온재가노인복지센터,"인천광역시 남동구 구월로336번길 39, 1층 (만수동)",37.4533252,126.728004,0,2024-08-23
432,재가노인복지시설,인천YMCA노인복지센터,"인천광역시 남동구 구월남로 118, 402호 (구월동)",37.45302082,126.7024662,0,2024-08-23
433,재가노인복지시설,만수무강재가복지센터,"인천광역시 남동구 백범로101번길 76, 외 1층층 102호 (만수동)",37.45053154,126.7330014,0,2024-08-23
434,재가노인복지시설,다온재가복지센터,인천광역시 남동구 서판로4번길 20 (만수동),37.46063506,126.7240484,0,2024-08-23
435,재가노인복지시설,인화재가노인복지센터,"인천광역시 남동구 소래역로 50, 402-1호 (논현동)",37.40159095,126.7342203,0,2024-08-23
436,재가노인복지시설,(A+)나래복지센터,"인천광역시 남동구 구월말로 17-1, 1층 (구월동)",37.45051948,126.7243331,0,2024-08-23
437,재가노인복지시설,예사랑재가노인복지센터,"인천광역시 남동구 호구포로 221, 8층 (논현동)",37.40277676,126.7096911,0,2024-08-23
438,재가노인복지시설,어르신재가복지센터,"인천광역시 남동구 백범로 399, 508호 (간석동, 아트폴리스)",37.4670088,126.7069386,0,2024-08-23
439,재가노인복지시설,협동조합 국제토탈케어협회,"인천광역시 남동구 구월남로 163, B01호 (구월동)",37.45321285,126.7076619,0,2024-08-23
440,재가노인복지시설,마루재가복지센터,인천광역시 남동구 도림북로19번길 37 (도림동),37.42312597,126.7317004,0,2024-08-23
441,재가노인복지시설,팔팔재가복지센터,"인천광역시 남동구 담방로 105, 7702동 212호, 213호 (만수동, 만수주공7단지 아파트)",37.45042499,126.7398973,0,2024-08-23
442,재가노인복지시설,디딤돌재가복지센터,"인천광역시 남동구 구월남로 118, 702호 (구월동)",37.45302082,126.7024662,0,2024-08-23
443,재가노인복지시설,(A+)아람노인재활주간보호,"인천광역시 남동구 구월남로 216, 403, 404호 (구월동, 가나프라자)",37.45250092,126.7134382,28,2024-08-23
444,재가노인복지시설,만수복지용구,"인천광역시 남동구 서창남로 16-2, 102호 (서창동, 서창메디컬)",37.42127129,126.75218,0,2024-08-23
445,재가노인복지시설,따뜻한방문간호센터,"인천광역시 남동구 서창남순환로 124-12, 202호 (서창동)",37.42972721,126.7432042,0,2024-08-23
446,재가노인복지시설,황송데이케어센터,"인천광역시 남동구 청능대로595번길 9, 401호 (논현동)",37.4017796,126.7249331,0,2024-08-23
447,재가노인복지시설,성심의료기,"인천광역시 남동구 구월말로86번길 12, 1층 (만수동)",37.45651017,126.725893,0,2024-08-23
448,재가노인복지시설,다소망재가복지센터,"인천광역시 남동구 주안로255번길 2, 1층 (간석동)",37.46335742,126.6985236,0,2024-08-23
449,재가노인복지시설,가족처럼노인주야간보호센터,"인천광역시 남동구 논고개로 121, 901호 (논현동)",37.40192922,126.7237672,0,2024-08-23
450,재가노인복지시설,무지개재가복지센터,"인천광역시 남동구 백범로214번길 7, 나동 209호 (만수동, 제상가)",37.46061438,126.725473,0,2024-08-23
451,재가노인복지시설,미소재활주간보호센터,"인천광역시 남동구 서창남순환로216번길 36, 403, 404호 (서창동)",37.42257396,126.7492549,0,2024-08-23
452,재가노인복지시설,고운주간보호센터,"인천광역시 남동구 만수서로 74, 202, 301호 (만수동)",37.46158191,126.7341829,0,2024-08-23
453,재가노인복지시설,에버그린데이케어센터,"인천광역시 남동구 구월로 303, 3층 (만수동)",37.45581041,126.7245033,0,2024-08-23
454,재가노인복지시설,예손주야간보호센터3호점,"인천광역시 남동구 논고개로 118, 601호 (논현동)",37.4016939,126.7245054,0,2024-08-23
